[{
    "class": "TPV",
    "device": "/dev/ttyS0",
    "mode": 3,
    "time": "2020-03-31T13:32:11.2990000Z",
    "lat": 60.4626390959428,
    "lon": 24.2126380890667,
    "altMSL": 34.4734914738096,
    "eph": 5.11960312962514E-05,
    "epv": 1.17617510826149,
    "eps": 0.210804721904362,
    "track": 324.683499770092,
    "speed": 14.3356366499027,
    "climb": 0.230969511080053,
    "pDOP": 1.34433096942693,
    "EventProcessedUtcTime": "2020-04-01T20:11:48.5280833Z",
    "PartitionId": 2,
    "EventEnqueuedUtcTime": "2020-04-01T20:01:37.6770000Z",
    "IoTHub": {
        "MessageId": null,
        "CorrelationId": null,
        "ConnectionDeviceId": "MyDotnetDevice",
        "ConnectionDeviceGenerationId": "637212789334938098",
        "EnqueuedTime": "2020-04-01T20:01:37.0000000",
        "StreamId": null
    }
},
{
    "class": "TPV",
    "device": "/dev/ttyS0",
    "mode": 3,
    "time": "2020-03-31T13:32:11.2990000Z",
    "lat": 60.8229595398637,
    "lon": 24.7396665619405,
    "altMSL": 34.5202878366785,
    "eph": 6.02735563927673E-05,
    "epv": 1.13982385775997,
    "eps": 0.8002437436023,
    "track": 324.410883974941,
    "speed": 49.0036132368276,
    "climb": -0.385929339279388,
    "pDOP": 1.88764335163294,
    "EventProcessedUtcTime": "2020-04-01T20:11:48.5280833Z",
    "PartitionId": 2,
    "EventEnqueuedUtcTime": "2020-04-01T20:01:38.9110000Z",
    "IoTHub": {
        "MessageId": null,
        "CorrelationId": null,
        "ConnectionDeviceId": "MyDotnetDevice",
        "ConnectionDeviceGenerationId": "637212789334938098",
        "EnqueuedTime": "2020-04-01T20:01:38.0000000",
        "StreamId": null
    }
},
{
    "class": "TPV",
    "device": "/dev/ttyS0",
    "mode": 3,
    "time": "2020-03-31T13:32:11.2990000Z",
    "lat": 60.5899165349966,
    "lon": 24.8726372229274,
    "altMSL": 33.8391560306024,
    "eph": 8.23720383841414E-05,
    "epv": 1.55174064522225,
    "eps": 0.818278378722388,
    "track": 324.69466893221,
    "speed": 28.2696917835948,
    "climb": 0.331138095041336,
    "pDOP": 1.83299257598491,
    "EventProcessedUtcTime": "2020-04-01T20:11:48.5280833Z",
    "PartitionId": 2,
    "EventEnqueuedUtcTime": "2020-04-01T20:01:40.7400000Z",
    "IoTHub": {
        "MessageId": null,
        "CorrelationId": null,
        "ConnectionDeviceId": "MyDotnetDevice",
        "ConnectionDeviceGenerationId": "637212789334938098",
        "EnqueuedTime": "2020-04-01T20:01:40.0000000",
        "StreamId": null
    }
},
{
    "class": "TPV",
    "device": "/dev/ttyS0",
    "mode": 3,
    "time": "2020-03-31T13:32:11.2990000Z",
    "lat": 60.3721364552025,
    "lon": 24.1246900028198,
    "altMSL": 35.7040512900353,
    "eph": 2.06736643894919E-05,
    "epv": 1.85707549045658,
    "eps": 0.221681278302186,
    "track": 325.29507462275,
    "speed": 34.5856099578485,
    "climb": 0.766496607925043,
    "pDOP": 1.27619199933307,
    "EventProcessedUtcTime": "2020-04-01T20:11:48.5280833Z",
    "PartitionId": 2,
    "EventEnqueuedUtcTime": "2020-04-01T20:01:41.3650000Z",
    "IoTHub": {
        "MessageId": null,
        "CorrelationId": null,
        "ConnectionDeviceId": "MyDotnetDevice",
        "ConnectionDeviceGenerationId": "637212789334938098",
        "EnqueuedTime": "2020-04-01T20:01:41.0000000",
        "StreamId": null
    }
},
{
    "class": "TPV",
    "device": "/dev/ttyS0",
    "mode": 3,
    "time": "2020-03-31T13:32:11.2990000Z",
    "lat": 60.0509949187054,
    "lon": 24.5448924929578,
    "altMSL": 34.8932462771857,
    "eph": 7.09756696461587E-05,
    "epv": 1.33559865194168,
    "eps": 0.14742306440483,
    "track": 324.745054771074,
    "speed": 43.0754027963036,
    "climb": 0.372934334153745,
    "pDOP": 1.21398517033736,
    "EventProcessedUtcTime": "2020-04-01T20:11:48.5280833Z",
    "PartitionId": 2,
    "EventEnqueuedUtcTime": "2020-04-01T20:01:43.2090000Z",
    "IoTHub": {
        "MessageId": null,
        "CorrelationId": null,
        "ConnectionDeviceId": "MyDotnetDevice",
        "ConnectionDeviceGenerationId": "637212789334938098",
        "EnqueuedTime": "2020-04-01T20:01:43.0000000",
        "StreamId": null
    }
},
{
    "class": "TPV",
    "device": "/dev/ttyS0",
    "mode": 3,
    "time": "2020-03-31T13:32:11.2990000Z",
    "lat": 60.9666448933848,
    "lon": 24.1653562147009,
    "altMSL": 35.0320558939278,
    "eph": 9.32027739906697E-05,
    "epv": 1.58269541132389,
    "eps": 0.901517976960874,
    "track": 324.053021986528,
    "speed": 8.48185025597077,
    "climb": 0.222367992262527,
    "pDOP": 1.05059097616495,
    "EventProcessedUtcTime": "2020-04-01T20:11:48.5280833Z",
    "PartitionId": 2,
    "EventEnqueuedUtcTime": "2020-04-01T20:01:44.6470000Z",
    "IoTHub": {
        "MessageId": null,
        "CorrelationId": null,
        "ConnectionDeviceId": "MyDotnetDevice",
        "ConnectionDeviceGenerationId": "637212789334938098",
        "EnqueuedTime": "2020-04-01T20:01:44.0000000",
        "StreamId": null
    }
},
{
    "class": "TPV",
    "device": "/dev/ttyS0",
    "mode": 3,
    "time": "2020-03-31T13:32:11.2990000Z",
    "lat": 60.8711379919532,
    "lon": 24.9368246034425,
    "altMSL": 35.4461379998578,
    "eph": 5.8721024197862E-05,
    "epv": 1.6446215345732,
    "eps": 0.314062038117117,
    "track": 325.856414919652,
    "speed": 43.7066504781631,
    "climb": -0.865252463084297,
    "pDOP": 1.72093555178537,
    "EventProcessedUtcTime": "2020-04-01T20:11:49.0280641Z",
    "PartitionId": 2,
    "EventEnqueuedUtcTime": "2020-04-01T20:01:46.4910000Z",
    "IoTHub": {
        "MessageId": null,
        "CorrelationId": null,
        "ConnectionDeviceId": "MyDotnetDevice",
        "ConnectionDeviceGenerationId": "637212789334938098",
        "EnqueuedTime": "2020-04-01T20:01:46.0000000",
        "StreamId": null
    }
},
{
    "class": "TPV",
    "device": "/dev/ttyS0",
    "mode": 3,
    "time": "2020-03-31T13:32:11.2990000Z",
    "lat": 60.1270612851377,
    "lon": 24.8866850593531,
    "altMSL": 33.6690714921193,
    "eph": 3.67086366921238E-05,
    "epv": 1.23625458508556,
    "eps": 0.718620431012763,
    "track": 325.787372437672,
    "speed": 22.6888333217655,
    "climb": -0.515535794438578,
    "pDOP": 1.25699246733309,
    "EventProcessedUtcTime": "2020-04-01T20:11:49.0280641Z",
    "PartitionId": 2,
    "EventEnqueuedUtcTime": "2020-04-01T20:01:47.3040000Z",
    "IoTHub": {
        "MessageId": null,
        "CorrelationId": null,
        "ConnectionDeviceId": "MyDotnetDevice",
        "ConnectionDeviceGenerationId": "637212789334938098",
        "EnqueuedTime": "2020-04-01T20:01:47.0000000",
        "StreamId": null
    }
},
{
    "class": "TPV",
    "device": "/dev/ttyS0",
    "mode": 3,
    "time": "2020-03-31T13:32:11.2990000Z",
    "lat": 60.2874062053335,
    "lon": 24.9729847828732,
    "altMSL": 34.1989075249056,
    "eph": 3.69332800791288E-05,
    "epv": 1.40375258233573,
    "eps": 0.704400674302318,
    "track": 324.098825439391,
    "speed": 45.2464230066382,
    "climb": -0.0321864104048286,
    "pDOP": 1.43705731697244,
    "EventProcessedUtcTime": "2020-04-01T20:11:49.0280641Z",
    "PartitionId": 2,
    "EventEnqueuedUtcTime": "2020-04-01T20:01:48.5380000Z",
    "IoTHub": {
        "MessageId": null,
        "CorrelationId": null,
        "ConnectionDeviceId": "MyDotnetDevice",
        "ConnectionDeviceGenerationId": "637212789334938098",
        "EnqueuedTime": "2020-04-01T20:01:48.0000000",
        "StreamId": null
    }
},
{
    "class": "TPV",
    "device": "/dev/ttyS0",
    "mode": 3,
    "time": "2020-03-31T13:32:11.2990000Z",
    "lat": 60.3509556568931,
    "lon": 24.7608886951399,
    "altMSL": 33.4734686210162,
    "eph": 1.65281139856801E-05,
    "epv": 1.58532378616991,
    "eps": 0.593633468073622,
    "track": 324.472930092119,
    "speed": 19.8987004425836,
    "climb": -0.0854557590025736,
    "pDOP": 1.85842791193092,
    "EventProcessedUtcTime": "2020-04-01T20:11:49.0280641Z",
    "PartitionId": 2,
    "EventEnqueuedUtcTime": "2020-04-01T20:01:50.4130000Z",
    "IoTHub": {
        "MessageId": null,
        "CorrelationId": null,
        "ConnectionDeviceId": "MyDotnetDevice",
        "ConnectionDeviceGenerationId": "637212789334938098",
        "EnqueuedTime": "2020-04-01T20:01:50.0000000",
        "StreamId": null
    }
},
{
    "class": "TPV",
    "device": "/dev/ttyS0",
    "mode": 3,
    "time": "2020-03-31T13:32:11.2990000Z",
    "lat": 60.9633337845855,
    "lon": 24.2261749982024,
    "altMSL": 34.8929707258441,
    "eph": 1.36523291997855E-05,
    "epv": 1.31497899876674,
    "eps": 0.153513102398027,
    "track": 325.324224077782,
    "speed": 24.6882448483669,
    "climb": -0.564913004899823,
    "pDOP": 1.36140510177305,
    "EventProcessedUtcTime": "2020-04-01T20:11:49.0280641Z",
    "PartitionId": 2,
    "EventEnqueuedUtcTime": "2020-04-01T20:01:51.8350000Z",
    "IoTHub": {
        "MessageId": null,
        "CorrelationId": null,
        "ConnectionDeviceId": "MyDotnetDevice",
        "ConnectionDeviceGenerationId": "637212789334938098",
        "EnqueuedTime": "2020-04-01T20:01:51.0000000",
        "StreamId": null
    }
},
{
    "class": "TPV",
    "device": "/dev/ttyS0",
    "mode": 3,
    "time": "2020-03-31T13:32:11.2990000Z",
    "lat": 60.7840090146214,
    "lon": 24.3309345321408,
    "altMSL": 33.7711246510833,
    "eph": 9.95701269244636E-05,
    "epv": 1.17594576961172,
    "eps": 0.45931008200129,
    "track": 324.008805396505,
    "speed": 48.340605392745,
    "climb": 0.939057209500604,
    "pDOP": 1.81910174610983,
    "EventProcessedUtcTime": "2020-04-01T20:11:49.0280641Z",
    "PartitionId": 2,
    "EventEnqueuedUtcTime": "2020-04-01T20:01:53.2730000Z",
    "IoTHub": {
        "MessageId": null,
        "CorrelationId": null,
        "ConnectionDeviceId": "MyDotnetDevice",
        "ConnectionDeviceGenerationId": "637212789334938098",
        "EnqueuedTime": "2020-04-01T20:01:53.0000000",
        "StreamId": null
    }
},
{
    "class": "TPV",
    "device": "/dev/ttyS0",
    "mode": 3,
    "time": "2020-03-31T13:32:11.2990000Z",
    "lat": 60.8503021410901,
    "lon": 24.9764025709482,
    "altMSL": 33.0389049914847,
    "eph": 6.39455939940855E-05,
    "epv": 1.88000752165914,
    "eps": 0.635390241926252,
    "track": 325.312407230172,
    "speed": 20.6292718656497,
    "climb": 0.999300778377476,
    "pDOP": 1.1532146703234,
    "EventProcessedUtcTime": "2020-04-01T20:11:49.5280676Z",
    "PartitionId": 2,
    "EventEnqueuedUtcTime": "2020-04-01T20:01:55.3200000Z",
    "IoTHub": {
        "MessageId": null,
        "CorrelationId": null,
        "ConnectionDeviceId": "MyDotnetDevice",
        "ConnectionDeviceGenerationId": "637212789334938098",
        "EnqueuedTime": "2020-04-01T20:01:55.0000000",
        "StreamId": null
    }
},
{
    "class": "TPV",
    "device": "/dev/ttyS0",
    "mode": 3,
    "time": "2020-03-31T13:32:11.2990000Z",
    "lat": 60.9605775223861,
    "lon": 24.8595118447484,
    "altMSL": 34.348262652917,
    "eph": 9.34197078893984E-06,
    "epv": 1.01618209668257,
    "eps": 0.0796357114238831,
    "track": 324.274788248946,
    "speed": 34.2012038865132,
    "climb": 0.593909135364885,
    "pDOP": 1.3521983308495,
    "EventProcessedUtcTime": "2020-04-01T20:11:49.5280676Z",
    "PartitionId": 2,
    "EventEnqueuedUtcTime": "2020-04-01T20:01:56.1490000Z",
    "IoTHub": {
        "MessageId": null,
        "CorrelationId": null,
        "ConnectionDeviceId": "MyDotnetDevice",
        "ConnectionDeviceGenerationId": "637212789334938098",
        "EnqueuedTime": "2020-04-01T20:01:55.0000000",
        "StreamId": null
    }
},
{
    "class": "TPV",
    "device": "/dev/ttyS0",
    "mode": 3,
    "time": "2020-03-31T13:32:11.2990000Z",
    "lat": 60.1156937475855,
    "lon": 24.63865583606,
    "altMSL": 35.6581221626411,
    "eph": 3.4668955921507E-05,
    "epv": 1.78909788317471,
    "eps": 0.672761973306891,
    "track": 324.962503178028,
    "speed": 32.4931664478468,
    "climb": 0.350920573971663,
    "pDOP": 1.99463322432462,
    "EventProcessedUtcTime": "2020-04-01T20:11:49.5280676Z",
    "PartitionId": 2,
    "EventEnqueuedUtcTime": "2020-04-01T20:01:58.1960000Z",
    "IoTHub": {
        "MessageId": null,
        "CorrelationId": null,
        "ConnectionDeviceId": "MyDotnetDevice",
        "ConnectionDeviceGenerationId": "637212789334938098",
        "EnqueuedTime": "2020-04-01T20:01:58.0000000",
        "StreamId": null
    }
},
{
    "class": "TPV",
    "device": "/dev/ttyS0",
    "mode": 3,
    "time": "2020-03-31T13:32:11.2990000Z",
    "lat": 60.6232738432583,
    "lon": 24.3160210951772,
    "altMSL": 34.6508282337574,
    "eph": 1.49479347350765E-05,
    "epv": 1.04563786976302,
    "eps": 0.957598374205454,
    "track": 325.163531345857,
    "speed": 19.9192269108813,
    "climb": -0.448445458639621,
    "pDOP": 1.42002199470067,
    "EventProcessedUtcTime": "2020-04-01T20:11:49.5280676Z",
    "PartitionId": 2,
    "EventEnqueuedUtcTime": "2020-04-01T20:01:59.6340000Z",
    "IoTHub": {
        "MessageId": null,
        "CorrelationId": null,
        "ConnectionDeviceId": "MyDotnetDevice",
        "ConnectionDeviceGenerationId": "637212789334938098",
        "EnqueuedTime": "2020-04-01T20:01:59.0000000",
        "StreamId": null
    }
},
{
    "class": "TPV",
    "device": "/dev/ttyS0",
    "mode": 3,
    "time": "2020-03-31T13:32:11.2990000Z",
    "lat": 60.3043218247147,
    "lon": 24.6563081786299,
    "altMSL": 34.6566058814789,
    "eph": 1.68412548568292E-05,
    "epv": 1.57788634746237,
    "eps": 0.232713421915059,
    "track": 324.188691019634,
    "speed": 40.4657394729861,
    "climb": 0.035125065611268,
    "pDOP": 1.31532193735024,
    "EventProcessedUtcTime": "2020-04-01T20:11:49.5280676Z",
    "PartitionId": 2,
    "EventEnqueuedUtcTime": "2020-04-01T20:02:00.4320000Z",
    "IoTHub": {
        "MessageId": null,
        "CorrelationId": null,
        "ConnectionDeviceId": "MyDotnetDevice",
        "ConnectionDeviceGenerationId": "637212789334938098",
        "EnqueuedTime": "2020-04-01T20:02:00.0000000",
        "StreamId": null
    }
},
{
    "class": "TPV",
    "device": "/dev/ttyS0",
    "mode": 3,
    "time": "2020-03-31T13:32:11.2990000Z",
    "lat": 60.3010516894521,
    "lon": 24.8567854388881,
    "altMSL": 33.6430050510182,
    "eph": 6.98955456586068E-05,
    "epv": 1.26711713954206,
    "eps": 0.0717629976904779,
    "track": 325.956345811932,
    "speed": 39.6943810217522,
    "climb": -0.300593682239109,
    "pDOP": 1.2798537198826,
    "EventProcessedUtcTime": "2020-04-01T20:11:49.5280676Z",
    "PartitionId": 2,
    "EventEnqueuedUtcTime": "2020-04-01T20:02:01.4640000Z",
    "IoTHub": {
        "MessageId": null,
        "CorrelationId": null,
        "ConnectionDeviceId": "MyDotnetDevice",
        "ConnectionDeviceGenerationId": "637212789334938098",
        "EnqueuedTime": "2020-04-01T20:02:01.0000000",
        "StreamId": null
    }
},
{
    "class": "TPV",
    "device": "/dev/ttyS0",
    "mode": 3,
    "time": "2020-03-31T13:32:11.2990000Z",
    "lat": 60.5715929998884,
    "lon": 24.7400570454728,
    "altMSL": 34.3836318540311,
    "eph": 8.53758654023408E-05,
    "epv": 1.33851385458303,
    "eps": 0.19092424269343,
    "track": 324.466253771664,
    "speed": 13.1242232416404,
    "climb": 0.441660522688953,
    "pDOP": 1.47282231574544,
    "EventProcessedUtcTime": "2020-04-01T20:11:50.0436724Z",
    "PartitionId": 2,
    "EventEnqueuedUtcTime": "2020-04-01T20:02:02.2970000Z",
    "IoTHub": {
        "MessageId": null,
        "CorrelationId": null,
        "ConnectionDeviceId": "MyDotnetDevice",
        "ConnectionDeviceGenerationId": "637212789334938098",
        "EnqueuedTime": "2020-04-01T20:02:02.0000000",
        "StreamId": null
    }
},
{
    "class": "TPV",
    "device": "/dev/ttyS0",
    "mode": 3,
    "time": "2020-03-31T13:32:11.2990000Z",
    "lat": 60.9012954090262,
    "lon": 24.6633685569574,
    "altMSL": 33.4110708760149,
    "eph": 8.55184700738259E-06,
    "epv": 1.04806574063751,
    "eps": 0.881306738537413,
    "track": 324.228541148002,
    "speed": 12.2653793060525,
    "climb": -0.151649891469465,
    "pDOP": 1.48812724160409,
    "EventProcessedUtcTime": "2020-04-01T20:11:50.0436724Z",
    "PartitionId": 2,
    "EventEnqueuedUtcTime": "2020-04-01T20:02:03.7140000Z",
    "IoTHub": {
        "MessageId": null,
        "CorrelationId": null,
        "ConnectionDeviceId": "MyDotnetDevice",
        "ConnectionDeviceGenerationId": "637212789334938098",
        "EnqueuedTime": "2020-04-01T20:02:03.0000000",
        "StreamId": null
    }
},
{
    "class": "TPV",
    "device": "/dev/ttyS0",
    "mode": 3,
    "time": "2020-03-31T13:32:11.2990000Z",
    "lat": 60.360441602003,
    "lon": 24.0286033242143,
    "altMSL": 33.7608582497392,
    "eph": 6.5339690197883E-05,
    "epv": 1.14722899820061,
    "eps": 0.976013209659612,
    "track": 325.168341143135,
    "speed": 40.7475516399124,
    "climb": -0.0683903093768239,
    "pDOP": 1.0654696501165,
    "EventProcessedUtcTime": "2020-04-01T20:11:50.0436724Z",
    "PartitionId": 2,
    "EventEnqueuedUtcTime": "2020-04-01T20:02:04.7460000Z",
    "IoTHub": {
        "MessageId": null,
        "CorrelationId": null,
        "ConnectionDeviceId": "MyDotnetDevice",
        "ConnectionDeviceGenerationId": "637212789334938098",
        "EnqueuedTime": "2020-04-01T20:02:04.0000000",
        "StreamId": null
    }
},
{
    "class": "TPV",
    "device": "/dev/ttyS0",
    "mode": 3,
    "time": "2020-03-31T13:32:11.2990000Z",
    "lat": 60.8056929133859,
    "lon": 24.7969626359627,
    "altMSL": 35.2949954659189,
    "eph": 9.30108256139843E-05,
    "epv": 1.92069351809132,
    "eps": 0.698801915021055,
    "track": 325.212394162646,
    "speed": 22.257134760384,
    "climb": 0.924614520708385,
    "pDOP": 1.82510251217759,
    "EventProcessedUtcTime": "2020-04-01T20:11:50.0436724Z",
    "PartitionId": 2,
    "EventEnqueuedUtcTime": "2020-04-01T20:02:05.7620000Z",
    "IoTHub": {
        "MessageId": null,
        "CorrelationId": null,
        "ConnectionDeviceId": "MyDotnetDevice",
        "ConnectionDeviceGenerationId": "637212789334938098",
        "EnqueuedTime": "2020-04-01T20:02:05.0000000",
        "StreamId": null
    }
},
{
    "class": "TPV",
    "device": "/dev/ttyS0",
    "mode": 3,
    "time": "2020-03-31T13:32:11.2990000Z",
    "lat": 60.9382894718732,
    "lon": 24.8824218250264,
    "altMSL": 33.4353221126065,
    "eph": 4.23706665832413E-05,
    "epv": 1.02008509729993,
    "eps": 0.271920032925867,
    "track": 324.871580165285,
    "speed": 20.6125809348247,
    "climb": -0.421949051051377,
    "pDOP": 1.90323448595742,
    "EventProcessedUtcTime": "2020-04-01T20:11:50.0436724Z",
    "PartitionId": 2,
    "EventEnqueuedUtcTime": "2020-04-01T20:02:07.0280000Z",
    "IoTHub": {
        "MessageId": null,
        "CorrelationId": null,
        "ConnectionDeviceId": "MyDotnetDevice",
        "ConnectionDeviceGenerationId": "637212789334938098",
        "EnqueuedTime": "2020-04-01T20:02:06.0000000",
        "StreamId": null
    }
},
{
    "class": "TPV",
    "device": "/dev/ttyS0",
    "mode": 3,
    "time": "2020-03-31T13:32:11.2990000Z",
    "lat": 60.7327033838875,
    "lon": 24.4714025023726,
    "altMSL": 35.7869612908861,
    "eph": 5.36084275011012E-05,
    "epv": 1.22720398112536,
    "eps": 0.320679688044209,
    "track": 324.756017763985,
    "speed": 31.5892784272271,
    "climb": 0.458540664733639,
    "pDOP": 1.733640382408,
    "EventProcessedUtcTime": "2020-04-01T20:11:50.0436724Z",
    "PartitionId": 2,
    "EventEnqueuedUtcTime": "2020-04-01T20:02:08.0430000Z",
    "IoTHub": {
        "MessageId": null,
        "CorrelationId": null,
        "ConnectionDeviceId": "MyDotnetDevice",
        "ConnectionDeviceGenerationId": "637212789334938098",
        "EnqueuedTime": "2020-04-01T20:02:07.0000000",
        "StreamId": null
    }
},
{
    "class": "TPV",
    "device": "/dev/ttyS0",
    "mode": 3,
    "time": "2020-03-31T13:32:11.2990000Z",
    "lat": 60.9100231588399,
    "lon": 24.4315720826534,
    "altMSL": 34.8738228119322,
    "eph": 7.68798917424306E-05,
    "epv": 1.24384947505027,
    "eps": 0.942296709838461,
    "track": 325.693974336932,
    "speed": 29.263535226818,
    "climb": 0.669587273462483,
    "pDOP": 1.48986238869366,
    "EventProcessedUtcTime": "2020-04-01T20:11:50.5593204Z",
    "PartitionId": 2,
    "EventEnqueuedUtcTime": "2020-04-01T20:02:09.8710000Z",
    "IoTHub": {
        "MessageId": null,
        "CorrelationId": null,
        "ConnectionDeviceId": "MyDotnetDevice",
        "ConnectionDeviceGenerationId": "637212789334938098",
        "EnqueuedTime": "2020-04-01T20:02:09.0000000",
        "StreamId": null
    }
},
{
    "class": "TPV",
    "device": "/dev/ttyS0",
    "mode": 3,
    "time": "2020-03-31T13:32:11.2990000Z",
    "lat": 60.1965026847071,
    "lon": 24.9375191651925,
    "altMSL": 34.2836305407265,
    "eph": 7.49292923486462E-05,
    "epv": 1.6340566732148,
    "eps": 0.554744620600131,
    "track": 324.249913101201,
    "speed": 19.7078880885187,
    "climb": 0.936806827288497,
    "pDOP": 1.08392989872206,
    "EventProcessedUtcTime": "2020-04-01T20:11:50.5593204Z",
    "PartitionId": 2,
    "EventEnqueuedUtcTime": "2020-04-01T20:02:11.3250000Z",
    "IoTHub": {
        "MessageId": null,
        "CorrelationId": null,
        "ConnectionDeviceId": "MyDotnetDevice",
        "ConnectionDeviceGenerationId": "637212789334938098",
        "EnqueuedTime": "2020-04-01T20:02:11.0000000",
        "StreamId": null
    }
},
{
    "class": "TPV",
    "device": "/dev/ttyS0",
    "mode": 3,
    "time": "2020-03-31T13:32:11.2990000Z",
    "lat": 60.2922347999607,
    "lon": 24.3796186509447,
    "altMSL": 34.2101455126936,
    "eph": 3.2441439774093E-05,
    "epv": 1.83709659093856,
    "eps": 0.308936988147412,
    "track": 324.86996152339,
    "speed": 10.4788542168582,
    "climb": -0.519941424727413,
    "pDOP": 1.21061774958419,
    "EventProcessedUtcTime": "2020-04-01T20:11:50.5593204Z",
    "PartitionId": 2,
    "EventEnqueuedUtcTime": "2020-04-01T20:02:11.9500000Z",
    "IoTHub": {
        "MessageId": null,
        "CorrelationId": null,
        "ConnectionDeviceId": "MyDotnetDevice",
        "ConnectionDeviceGenerationId": "637212789334938098",
        "EnqueuedTime": "2020-04-01T20:02:11.0000000",
        "StreamId": null
    }
},
{
    "class": "TPV",
    "device": "/dev/ttyS0",
    "mode": 3,
    "time": "2020-03-31T13:32:11.2990000Z",
    "lat": 60.1347422442095,
    "lon": 24.7240696729739,
    "altMSL": 35.3655251419942,
    "eph": 8.37984162772998E-05,
    "epv": 1.4288468409464,
    "eps": 0.81537500900001,
    "track": 325.941040691427,
    "speed": 26.7622780682343,
    "climb": -0.579503200752429,
    "pDOP": 1.91159541342016,
    "EventProcessedUtcTime": "2020-04-01T20:11:50.5593204Z",
    "PartitionId": 2,
    "EventEnqueuedUtcTime": "2020-04-01T20:02:13.5750000Z",
    "IoTHub": {
        "MessageId": null,
        "CorrelationId": null,
        "ConnectionDeviceId": "MyDotnetDevice",
        "ConnectionDeviceGenerationId": "637212789334938098",
        "EnqueuedTime": "2020-04-01T20:02:13.0000000",
        "StreamId": null
    }
},
{
    "class": "TPV",
    "device": "/dev/ttyS0",
    "mode": 3,
    "time": "2020-03-31T13:32:11.2990000Z",
    "lat": 60.9121963325479,
    "lon": 24.1211745460151,
    "altMSL": 34.1169227473982,
    "eph": 8.49594978079943E-05,
    "epv": 1.57520508886092,
    "eps": 0.354629810598972,
    "track": 324.710109085175,
    "speed": 21.096494986255,
    "climb": -0.211861949512671,
    "pDOP": 1.60312994551059,
    "EventProcessedUtcTime": "2020-04-01T20:11:50.5593204Z",
    "PartitionId": 2,
    "EventEnqueuedUtcTime": "2020-04-01T20:02:14.6060000Z",
    "IoTHub": {
        "MessageId": null,
        "CorrelationId": null,
        "ConnectionDeviceId": "MyDotnetDevice",
        "ConnectionDeviceGenerationId": "637212789334938098",
        "EnqueuedTime": "2020-04-01T20:02:14.0000000",
        "StreamId": null
    }
},
{
    "class": "TPV",
    "device": "/dev/ttyS0",
    "mode": 3,
    "time": "2020-03-31T13:32:11.2990000Z",
    "lat": 60.8955675567945,
    "lon": 24.5600765494444,
    "altMSL": 34.3969541352228,
    "eph": 3.70712285568338E-05,
    "epv": 1.29559108163025,
    "eps": 0.712186200410214,
    "track": 325.763190701959,
    "speed": 45.4141616855814,
    "climb": 0.390183858289469,
    "pDOP": 1.80962255914212,
    "EventProcessedUtcTime": "2020-04-01T20:11:50.5593204Z",
    "PartitionId": 2,
    "EventEnqueuedUtcTime": "2020-04-01T20:02:16.2480000Z",
    "IoTHub": {
        "MessageId": null,
        "CorrelationId": null,
        "ConnectionDeviceId": "MyDotnetDevice",
        "ConnectionDeviceGenerationId": "637212789334938098",
        "EnqueuedTime": "2020-04-01T20:02:16.0000000",
        "StreamId": null
    }
},
{
    "class": "TPV",
    "device": "/dev/ttyS0",
    "mode": 3,
    "time": "2020-03-31T13:32:11.2990000Z",
    "lat": 60.2627790739121,
    "lon": 24.553354297091,
    "altMSL": 33.5683651126774,
    "eph": 3.765124019126E-05,
    "epv": 1.27330610913844,
    "eps": 0.395125084740634,
    "track": 325.003873092124,
    "speed": 20.6313160432648,
    "climb": -0.0710947942319767,
    "pDOP": 1.89047475060936,
    "EventProcessedUtcTime": "2020-04-01T20:11:51.0749505Z",
    "PartitionId": 2,
    "EventEnqueuedUtcTime": "2020-04-01T20:02:17.6710000Z",
    "IoTHub": {
        "MessageId": null,
        "CorrelationId": null,
        "ConnectionDeviceId": "MyDotnetDevice",
        "ConnectionDeviceGenerationId": "637212789334938098",
        "EnqueuedTime": "2020-04-01T20:02:17.0000000",
        "StreamId": null
    }
},
{
    "class": "TPV",
    "device": "/dev/ttyS0",
    "mode": 3,
    "time": "2020-03-31T13:32:11.2990000Z",
    "lat": 60.5540038964497,
    "lon": 24.4815742729612,
    "altMSL": 34.8192780939021,
    "eph": 9.58513893167728E-05,
    "epv": 1.47720152767245,
    "eps": 0.0987881008064319,
    "track": 325.07379757011,
    "speed": 6.18503343881342,
    "climb": -0.241028775107595,
    "pDOP": 1.82135052644711,
    "EventProcessedUtcTime": "2020-04-01T20:11:51.0749505Z",
    "PartitionId": 2,
    "EventEnqueuedUtcTime": "2020-04-01T20:02:19.5150000Z",
    "IoTHub": {
        "MessageId": null,
        "CorrelationId": null,
        "ConnectionDeviceId": "MyDotnetDevice",
        "ConnectionDeviceGenerationId": "637212789334938098",
        "EnqueuedTime": "2020-04-01T20:02:19.0000000",
        "StreamId": null
    }
},
{
    "class": "TPV",
    "device": "/dev/ttyS0",
    "mode": 3,
    "time": "2020-03-31T13:32:11.2990000Z",
    "lat": 60.0974061764299,
    "lon": 24.175109530415,
    "altMSL": 35.4124328868522,
    "eph": 2.59514948008356E-05,
    "epv": 1.39197043999656,
    "eps": 0.690388252814481,
    "track": 324.321858805289,
    "speed": 7.93928514557857,
    "climb": -0.171985273329534,
    "pDOP": 1.39976018546138,
    "EventProcessedUtcTime": "2020-04-01T20:11:51.0749505Z",
    "PartitionId": 2,
    "EventEnqueuedUtcTime": "2020-04-01T20:02:20.9370000Z",
    "IoTHub": {
        "MessageId": null,
        "CorrelationId": null,
        "ConnectionDeviceId": "MyDotnetDevice",
        "ConnectionDeviceGenerationId": "637212789334938098",
        "EnqueuedTime": "2020-04-01T20:02:20.0000000",
        "StreamId": null
    }
},
{
    "class": "TPV",
    "device": "/dev/ttyS0",
    "mode": 3,
    "time": "2020-03-31T13:32:11.2990000Z",
    "lat": 60.8993108742402,
    "lon": 24.8193205901512,
    "altMSL": 34.9686734550487,
    "eph": 1.65724376293702E-05,
    "epv": 1.51707051671905,
    "eps": 0.263220020692432,
    "track": 325.242298059744,
    "speed": 23.2437179397064,
    "climb": 0.930869644941236,
    "pDOP": 1.65353789956008,
    "EventProcessedUtcTime": "2020-04-01T20:11:51.0749505Z",
    "PartitionId": 2,
    "EventEnqueuedUtcTime": "2020-04-01T20:02:22.3740000Z",
    "IoTHub": {
        "MessageId": null,
        "CorrelationId": null,
        "ConnectionDeviceId": "MyDotnetDevice",
        "ConnectionDeviceGenerationId": "637212789334938098",
        "EnqueuedTime": "2020-04-01T20:02:22.0000000",
        "StreamId": null
    }
},
{
    "class": "TPV",
    "device": "/dev/ttyS0",
    "mode": 3,
    "time": "2020-03-31T13:32:11.2990000Z",
    "lat": 60.5665434531712,
    "lon": 24.772252828708,
    "altMSL": 33.0292181465911,
    "eph": 9.59144914969404E-06,
    "epv": 1.76054065756525,
    "eps": 0.28623079987533,
    "track": 325.709622090547,
    "speed": 15.4138429977064,
    "climb": -0.685686949028488,
    "pDOP": 1.92288816809789,
    "EventProcessedUtcTime": "2020-04-01T20:11:51.0749505Z",
    "PartitionId": 2,
    "EventEnqueuedUtcTime": "2020-04-01T20:02:24.0170000Z",
    "IoTHub": {
        "MessageId": null,
        "CorrelationId": null,
        "ConnectionDeviceId": "MyDotnetDevice",
        "ConnectionDeviceGenerationId": "637212789334938098",
        "EnqueuedTime": "2020-04-01T20:02:23.0000000",
        "StreamId": null
    }
},
{
    "class": "TPV",
    "device": "/dev/ttyS0",
    "mode": 3,
    "time": "2020-03-31T13:32:11.2990000Z",
    "lat": 60.7424444312893,
    "lon": 24.870865323055,
    "altMSL": 33.8997513395267,
    "eph": 8.00861483812733E-05,
    "epv": 1.23480425320324,
    "eps": 0.493623136306937,
    "track": 324.308388367905,
    "speed": 37.9802509299387,
    "climb": 0.659710113732009,
    "pDOP": 1.11249759938219,
    "EventProcessedUtcTime": "2020-04-01T20:11:51.0749505Z",
    "PartitionId": 2,
    "EventEnqueuedUtcTime": "2020-04-01T20:02:25.0480000Z",
    "IoTHub": {
        "MessageId": null,
        "CorrelationId": null,
        "ConnectionDeviceId": "MyDotnetDevice",
        "ConnectionDeviceGenerationId": "637212789334938098",
        "EnqueuedTime": "2020-04-01T20:02:24.0000000",
        "StreamId": null
    }
},
{
    "class": "TPV",
    "device": "/dev/ttyS0",
    "mode": 3,
    "time": "2020-03-31T13:32:11.2990000Z",
    "lat": 60.4051837187285,
    "lon": 24.4661750632646,
    "altMSL": 33.0135902906831,
    "eph": 8.26446805534161E-07,
    "epv": 1.94186600341548,
    "eps": 0.390167841403823,
    "track": 325.725916117302,
    "speed": 30.9760789275058,
    "climb": 0.839688612539176,
    "pDOP": 1.43779303386705,
    "EventProcessedUtcTime": "2020-04-01T20:11:51.0749505Z",
    "PartitionId": 2,
    "EventEnqueuedUtcTime": "2020-04-01T20:02:26.4860000Z",
    "IoTHub": {
        "MessageId": null,
        "CorrelationId": null,
        "ConnectionDeviceId": "MyDotnetDevice",
        "ConnectionDeviceGenerationId": "637212789334938098",
        "EnqueuedTime": "2020-04-01T20:02:26.0000000",
        "StreamId": null
    }
},
{
    "class": "TPV",
    "device": "/dev/ttyS0",
    "mode": 3,
    "time": "2020-03-31T13:32:11.2990000Z",
    "lat": 60.8611102382937,
    "lon": 24.1070203586049,
    "altMSL": 34.9977712631215,
    "eph": 2.48456839122091E-05,
    "epv": 1.44571583366288,
    "eps": 0.642141822558894,
    "track": 324.008633259688,
    "speed": 28.5157705058883,
    "climb": -0.972249973086757,
    "pDOP": 1.51160471444559,
    "EventProcessedUtcTime": "2020-04-01T20:11:51.0749505Z",
    "PartitionId": 2,
    "EventEnqueuedUtcTime": "2020-04-01T20:02:28.5340000Z",
    "IoTHub": {
        "MessageId": null,
        "CorrelationId": null,
        "ConnectionDeviceId": "MyDotnetDevice",
        "ConnectionDeviceGenerationId": "637212789334938098",
        "EnqueuedTime": "2020-04-01T20:02:28.0000000",
        "StreamId": null
    }
},
{
    "class": "TPV",
    "device": "/dev/ttyS0",
    "mode": 3,
    "time": "2020-03-31T13:32:11.2990000Z",
    "lat": 60.8589954803972,
    "lon": 24.6838843504358,
    "altMSL": 34.7359958750829,
    "eph": 7.35771899919851E-05,
    "epv": 1.26836809295619,
    "eps": 0.128438551504369,
    "track": 325.605514732471,
    "speed": 13.7142495632704,
    "climb": -0.794295709484395,
    "pDOP": 1.13826619747014,
    "EventProcessedUtcTime": "2020-04-01T20:11:51.0749505Z",
    "PartitionId": 2,
    "EventEnqueuedUtcTime": "2020-04-01T20:02:29.9560000Z",
    "IoTHub": {
        "MessageId": null,
        "CorrelationId": null,
        "ConnectionDeviceId": "MyDotnetDevice",
        "ConnectionDeviceGenerationId": "637212789334938098",
        "EnqueuedTime": "2020-04-01T20:02:29.0000000",
        "StreamId": null
    }
},
{
    "class": "TPV",
    "device": "/dev/ttyS0",
    "mode": 3,
    "time": "2020-03-31T13:32:11.2990000Z",
    "lat": 60.5625486343925,
    "lon": 24.1191625567708,
    "altMSL": 35.2052931288282,
    "eph": 5.66219869333422E-06,
    "epv": 1.69830945026982,
    "eps": 0.68413281006931,
    "track": 325.305714000159,
    "speed": 39.1549834679603,
    "climb": 0.46270747830286,
    "pDOP": 1.01647382649429,
    "EventProcessedUtcTime": "2020-04-01T20:11:51.0749505Z",
    "PartitionId": 2,
    "EventEnqueuedUtcTime": "2020-04-01T20:02:30.7850000Z",
    "IoTHub": {
        "MessageId": null,
        "CorrelationId": null,
        "ConnectionDeviceId": "MyDotnetDevice",
        "ConnectionDeviceGenerationId": "637212789334938098",
        "EnqueuedTime": "2020-04-01T20:02:30.0000000",
        "StreamId": null
    }
},
{
    "class": "TPV",
    "device": "/dev/ttyS0",
    "mode": 3,
    "time": "2020-03-31T13:32:11.2990000Z",
    "lat": 60.9800887461659,
    "lon": 24.7997504234313,
    "altMSL": 34.8120836121086,
    "eph": 8.06373425203549E-05,
    "epv": 1.30458995481235,
    "eps": 0.0720651867203718,
    "track": 324.70325859436,
    "speed": 22.6850568822981,
    "climb": 0.305513470110257,
    "pDOP": 1.55927129954066,
    "EventProcessedUtcTime": "2020-04-01T20:11:51.0749505Z",
    "PartitionId": 2,
    "EventEnqueuedUtcTime": "2020-04-01T20:02:32.6290000Z",
    "IoTHub": {
        "MessageId": null,
        "CorrelationId": null,
        "ConnectionDeviceId": "MyDotnetDevice",
        "ConnectionDeviceGenerationId": "637212789334938098",
        "EnqueuedTime": "2020-04-01T20:02:32.0000000",
        "StreamId": null
    }
},
{
    "class": "TPV",
    "device": "/dev/ttyS0",
    "mode": 3,
    "time": "2020-03-31T13:32:11.2990000Z",
    "lat": 60.03746244965,
    "lon": 24.1302747307952,
    "altMSL": 34.8302970546439,
    "eph": 4.15661796189687E-06,
    "epv": 1.09688086858805,
    "eps": 0.748473072773066,
    "track": 325.995174898764,
    "speed": 29.4700933236024,
    "climb": -0.149869787110886,
    "pDOP": 1.24527135223396,
    "EventProcessedUtcTime": "2020-04-01T20:11:51.0749505Z",
    "PartitionId": 2,
    "EventEnqueuedUtcTime": "2020-04-01T20:02:34.2550000Z",
    "IoTHub": {
        "MessageId": null,
        "CorrelationId": null,
        "ConnectionDeviceId": "MyDotnetDevice",
        "ConnectionDeviceGenerationId": "637212789334938098",
        "EnqueuedTime": "2020-04-01T20:02:34.0000000",
        "StreamId": null
    }
},
{
    "class": "TPV",
    "device": "/dev/ttyS0",
    "mode": 3,
    "time": "2020-03-31T13:32:11.2990000Z",
    "lat": 60.752032032121,
    "lon": 24.6680315084141,
    "altMSL": 33.9179286439521,
    "eph": 9.01607955294479E-06,
    "epv": 1.50614856020834,
    "eps": 0.311855224572055,
    "track": 324.81008988284,
    "speed": 18.7002543465701,
    "climb": -0.926713173709211,
    "pDOP": 1.39585346327902,
    "EventProcessedUtcTime": "2020-04-01T20:11:51.5905884Z",
    "PartitionId": 2,
    "EventEnqueuedUtcTime": "2020-04-01T20:02:35.4890000Z",
    "IoTHub": {
        "MessageId": null,
        "CorrelationId": null,
        "ConnectionDeviceId": "MyDotnetDevice",
        "ConnectionDeviceGenerationId": "637212789334938098",
        "EnqueuedTime": "2020-04-01T20:02:35.0000000",
        "StreamId": null
    }
},
{
    "class": "TPV",
    "device": "/dev/ttyS0",
    "mode": 3,
    "time": "2020-03-31T13:32:11.2990000Z",
    "lat": 60.7094925566155,
    "lon": 24.2357220785859,
    "altMSL": 33.1480255677123,
    "eph": 9.17692032604335E-05,
    "epv": 1.46019912299709,
    "eps": 0.798704694862806,
    "track": 325.083666884845,
    "speed": 7.2718018504194,
    "climb": 0.849081491515544,
    "pDOP": 1.41121818610058,
    "EventProcessedUtcTime": "2020-04-01T20:11:51.5905884Z",
    "PartitionId": 2,
    "EventEnqueuedUtcTime": "2020-04-01T20:02:36.5210000Z",
    "IoTHub": {
        "MessageId": null,
        "CorrelationId": null,
        "ConnectionDeviceId": "MyDotnetDevice",
        "ConnectionDeviceGenerationId": "637212789334938098",
        "EnqueuedTime": "2020-04-01T20:02:36.0000000",
        "StreamId": null
    }
},
{
    "class": "TPV",
    "device": "/dev/ttyS0",
    "mode": 3,
    "time": "2020-03-31T13:32:11.2990000Z",
    "lat": 60.5354176194106,
    "lon": 24.6147038315491,
    "altMSL": 33.7041749272981,
    "eph": 8.54978680077465E-05,
    "epv": 1.06436848410609,
    "eps": 0.151570933010229,
    "track": 325.389191242116,
    "speed": 7.23690073296283,
    "climb": 0.218504481585,
    "pDOP": 1.1959151500817,
    "EventProcessedUtcTime": "2020-04-01T20:11:51.5905884Z",
    "PartitionId": 2,
    "EventEnqueuedUtcTime": "2020-04-01T20:02:38.5520000Z",
    "IoTHub": {
        "MessageId": null,
        "CorrelationId": null,
        "ConnectionDeviceId": "MyDotnetDevice",
        "ConnectionDeviceGenerationId": "637212789334938098",
        "EnqueuedTime": "2020-04-01T20:02:38.0000000",
        "StreamId": null
    }
},
{
    "class": "TPV",
    "device": "/dev/ttyS0",
    "mode": 3,
    "time": "2020-03-31T13:32:11.2990000Z",
    "lat": 60.6299616725324,
    "lon": 24.7913864598569,
    "altMSL": 33.7507923407251,
    "eph": 1.9198121046274E-06,
    "epv": 1.80649743639235,
    "eps": 0.556643347980754,
    "track": 324.813318727451,
    "speed": 26.3516330469174,
    "climb": 0.0950572384032687,
    "pDOP": 1.9244669125995,
    "EventProcessedUtcTime": "2020-04-01T20:11:51.5905884Z",
    "PartitionId": 2,
    "EventEnqueuedUtcTime": "2020-04-01T20:02:39.7860000Z",
    "IoTHub": {
        "MessageId": null,
        "CorrelationId": null,
        "ConnectionDeviceId": "MyDotnetDevice",
        "ConnectionDeviceGenerationId": "637212789334938098",
        "EnqueuedTime": "2020-04-01T20:02:39.0000000",
        "StreamId": null
    }
},
{
    "class": "TPV",
    "device": "/dev/ttyS0",
    "mode": 3,
    "time": "2020-03-31T13:32:11.2990000Z",
    "lat": 60.8533235484982,
    "lon": 24.1731113955253,
    "altMSL": 33.0253980839743,
    "eph": 8.22396809152512E-05,
    "epv": 1.65332334332789,
    "eps": 0.675252428592766,
    "track": 324.731426705947,
    "speed": 5.26909866895019,
    "climb": 0.618512143668957,
    "pDOP": 1.8279737540651,
    "EventProcessedUtcTime": "2020-04-01T20:11:51.5905884Z",
    "PartitionId": 2,
    "EventEnqueuedUtcTime": "2020-04-01T20:02:41.6160000Z",
    "IoTHub": {
        "MessageId": null,
        "CorrelationId": null,
        "ConnectionDeviceId": "MyDotnetDevice",
        "ConnectionDeviceGenerationId": "637212789334938098",
        "EnqueuedTime": "2020-04-01T20:02:41.0000000",
        "StreamId": null
    }
},
{
    "class": "TPV",
    "device": "/dev/ttyS0",
    "mode": 3,
    "time": "2020-03-31T13:32:11.2990000Z",
    "lat": 60.0484812436851,
    "lon": 24.005625962748,
    "altMSL": 35.9095415533099,
    "eph": 7.06635753953194E-05,
    "epv": 1.59257646351707,
    "eps": 0.523421268688245,
    "track": 325.76496023441,
    "speed": 16.1810533316718,
    "climb": -0.146167228997763,
    "pDOP": 1.32133348254549,
    "EventProcessedUtcTime": "2020-04-01T20:11:51.5905884Z",
    "PartitionId": 2,
    "EventEnqueuedUtcTime": "2020-04-01T20:02:43.8820000Z",
    "IoTHub": {
        "MessageId": null,
        "CorrelationId": null,
        "ConnectionDeviceId": "MyDotnetDevice",
        "ConnectionDeviceGenerationId": "637212789334938098",
        "EnqueuedTime": "2020-04-01T20:02:43.0000000",
        "StreamId": null
    }
},
{
    "class": "TPV",
    "device": "/dev/ttyS0",
    "mode": 3,
    "time": "2020-03-31T13:32:11.2990000Z",
    "lat": 60.3658747777184,
    "lon": 24.3969890034744,
    "altMSL": 34.7926227263141,
    "eph": 2.10551019856032E-05,
    "epv": 1.66314320110862,
    "eps": 0.0258121257768069,
    "track": 325.407126059014,
    "speed": 46.37681157532,
    "climb": 0.631774669341638,
    "pDOP": 1.34559841237292,
    "EventProcessedUtcTime": "2020-04-01T20:11:52.1062107Z",
    "PartitionId": 2,
    "EventEnqueuedUtcTime": "2020-04-01T20:02:45.3190000Z",
    "IoTHub": {
        "MessageId": null,
        "CorrelationId": null,
        "ConnectionDeviceId": "MyDotnetDevice",
        "ConnectionDeviceGenerationId": "637212789334938098",
        "EnqueuedTime": "2020-04-01T20:02:45.0000000",
        "StreamId": null
    }
},
{
    "class": "TPV",
    "device": "/dev/ttyS0",
    "mode": 3,
    "time": "2020-03-31T13:32:11.2990000Z",
    "lat": 60.2298203456354,
    "lon": 24.6918477600868,
    "altMSL": 34.4769246063553,
    "eph": 8.39642669465227E-05,
    "epv": 1.93874503902101,
    "eps": 0.834657074806586,
    "track": 324.788841104037,
    "speed": 18.3335302469011,
    "climb": 0.347065352996376,
    "pDOP": 1.91723623588553,
    "EventProcessedUtcTime": "2020-04-01T20:11:52.1062107Z",
    "PartitionId": 2,
    "EventEnqueuedUtcTime": "2020-04-01T20:02:46.5850000Z",
    "IoTHub": {
        "MessageId": null,
        "CorrelationId": null,
        "ConnectionDeviceId": "MyDotnetDevice",
        "ConnectionDeviceGenerationId": "637212789334938098",
        "EnqueuedTime": "2020-04-01T20:02:46.0000000",
        "StreamId": null
    }
},
{
    "class": "TPV",
    "device": "/dev/ttyS0",
    "mode": 3,
    "time": "2020-03-31T13:32:11.2990000Z",
    "lat": 60.0434925528446,
    "lon": 24.5385386168671,
    "altMSL": 34.8341325059692,
    "eph": 8.77690524271545E-05,
    "epv": 1.24704536294893,
    "eps": 0.69857896058754,
    "track": 325.801314650477,
    "speed": 5.17349564618128,
    "climb": -0.294058057616492,
    "pDOP": 1.23597270307875,
    "EventProcessedUtcTime": "2020-04-01T20:11:52.1062107Z",
    "PartitionId": 2,
    "EventEnqueuedUtcTime": "2020-04-01T20:02:47.2110000Z",
    "IoTHub": {
        "MessageId": null,
        "CorrelationId": null,
        "ConnectionDeviceId": "MyDotnetDevice",
        "ConnectionDeviceGenerationId": "637212789334938098",
        "EnqueuedTime": "2020-04-01T20:02:47.0000000",
        "StreamId": null
    }
},
{
    "class": "TPV",
    "device": "/dev/ttyS0",
    "mode": 3,
    "time": "2020-03-31T13:32:11.2990000Z",
    "lat": 60.271805980835,
    "lon": 24.5542130449574,
    "altMSL": 33.113484774769,
    "eph": 5.97297481539332E-05,
    "epv": 1.83691437255447,
    "eps": 0.58694261572647,
    "track": 324.327329408064,
    "speed": 15.7118945288062,
    "climb": -0.477254564164791,
    "pDOP": 1.66305600789518,
    "EventProcessedUtcTime": "2020-04-01T20:11:52.1062107Z",
    "PartitionId": 2,
    "EventEnqueuedUtcTime": "2020-04-01T20:02:48.8670000Z",
    "IoTHub": {
        "MessageId": null,
        "CorrelationId": null,
        "ConnectionDeviceId": "MyDotnetDevice",
        "ConnectionDeviceGenerationId": "637212789334938098",
        "EnqueuedTime": "2020-04-01T20:02:48.0000000",
        "StreamId": null
    }
},
{
    "class": "TPV",
    "device": "/dev/ttyS0",
    "mode": 3,
    "time": "2020-03-31T13:32:11.2990000Z",
    "lat": 60.5925973065163,
    "lon": 24.225389947754,
    "altMSL": 35.7705098487299,
    "eph": 1.20145638063618E-05,
    "epv": 1.89515727893224,
    "eps": 0.833955260382013,
    "track": 325.083129325455,
    "speed": 26.1084412392734,
    "climb": 0.0666717887235208,
    "pDOP": 1.21500642654253,
    "EventProcessedUtcTime": "2020-04-01T20:11:52.1062107Z",
    "PartitionId": 2,
    "EventEnqueuedUtcTime": "2020-04-01T20:02:50.7260000Z",
    "IoTHub": {
        "MessageId": null,
        "CorrelationId": null,
        "ConnectionDeviceId": "MyDotnetDevice",
        "ConnectionDeviceGenerationId": "637212789334938098",
        "EnqueuedTime": "2020-04-01T20:02:50.0000000",
        "StreamId": null
    }
},
{
    "class": "TPV",
    "device": "/dev/ttyS0",
    "mode": 3,
    "time": "2020-03-31T13:32:11.2990000Z",
    "lat": 60.0407761517171,
    "lon": 24.3859063197793,
    "altMSL": 33.5664523707547,
    "eph": 3.06436726500484E-05,
    "epv": 1.83231066811472,
    "eps": 0.915627532133659,
    "track": 324.035519178042,
    "speed": 34.323828097118,
    "climb": -0.661640424123798,
    "pDOP": 1.03163990240155,
    "EventProcessedUtcTime": "2020-04-01T20:11:52.1062107Z",
    "PartitionId": 2,
    "EventEnqueuedUtcTime": "2020-04-01T20:02:51.3510000Z",
    "IoTHub": {
        "MessageId": null,
        "CorrelationId": null,
        "ConnectionDeviceId": "MyDotnetDevice",
        "ConnectionDeviceGenerationId": "637212789334938098",
        "EnqueuedTime": "2020-04-01T20:02:51.0000000",
        "StreamId": null
    }
},
{
    "class": "TPV",
    "device": "/dev/ttyS0",
    "mode": 3,
    "time": "2020-03-31T13:32:11.2990000Z",
    "lat": 60.7021402026071,
    "lon": 24.9384524486672,
    "altMSL": 33.8494904198914,
    "eph": 1.26421040448556E-05,
    "epv": 1.05838048833347,
    "eps": 0.274513189343043,
    "track": 324.060263350634,
    "speed": 34.2488663886901,
    "climb": 0.323726579697675,
    "pDOP": 1.93249455929384,
    "EventProcessedUtcTime": "2020-04-01T20:11:52.6218448Z",
    "PartitionId": 2,
    "EventEnqueuedUtcTime": "2020-04-01T20:02:53.1960000Z",
    "IoTHub": {
        "MessageId": null,
        "CorrelationId": null,
        "ConnectionDeviceId": "MyDotnetDevice",
        "ConnectionDeviceGenerationId": "637212789334938098",
        "EnqueuedTime": "2020-04-01T20:02:52.0000000",
        "StreamId": null
    }
},
{
    "class": "TPV",
    "device": "/dev/ttyS0",
    "mode": 3,
    "time": "2020-03-31T13:32:11.2990000Z",
    "lat": 60.2878349699489,
    "lon": 24.4032830951751,
    "altMSL": 34.4385200801485,
    "eph": 1.54010891054762E-05,
    "epv": 1.66670795002333,
    "eps": 0.315154464596489,
    "track": 325.395544650217,
    "speed": 32.1286226781684,
    "climb": 0.469454698017544,
    "pDOP": 1.03781703954461,
    "EventProcessedUtcTime": "2020-04-01T20:11:52.6218448Z",
    "PartitionId": 2,
    "EventEnqueuedUtcTime": "2020-04-01T20:02:55.2430000Z",
    "IoTHub": {
        "MessageId": null,
        "CorrelationId": null,
        "ConnectionDeviceId": "MyDotnetDevice",
        "ConnectionDeviceGenerationId": "637212789334938098",
        "EnqueuedTime": "2020-04-01T20:02:55.0000000",
        "StreamId": null
    }
},
{
    "class": "TPV",
    "device": "/dev/ttyS0",
    "mode": 3,
    "time": "2020-03-31T13:32:11.2990000Z",
    "lat": 60.248056238167,
    "lon": 24.8200666489173,
    "altMSL": 34.3850144629297,
    "eph": 3.95742856616035E-05,
    "epv": 1.67105278124616,
    "eps": 0.118006709552373,
    "track": 325.427888191039,
    "speed": 12.6596439497823,
    "climb": 0.961458576825195,
    "pDOP": 1.72261045580851,
    "EventProcessedUtcTime": "2020-04-01T20:11:52.6218448Z",
    "PartitionId": 2,
    "EventEnqueuedUtcTime": "2020-04-01T20:02:56.9000000Z",
    "IoTHub": {
        "MessageId": null,
        "CorrelationId": null,
        "ConnectionDeviceId": "MyDotnetDevice",
        "ConnectionDeviceGenerationId": "637212789334938098",
        "EnqueuedTime": "2020-04-01T20:02:56.0000000",
        "StreamId": null
    }
},
{
    "class": "TPV",
    "device": "/dev/ttyS0",
    "mode": 3,
    "time": "2020-03-31T13:32:11.2990000Z",
    "lat": 60.4597130904252,
    "lon": 24.5682241509521,
    "altMSL": 35.4483531026395,
    "eph": 5.21882036943865E-05,
    "epv": 1.33190101866233,
    "eps": 0.183320617854279,
    "track": 325.520640890822,
    "speed": 14.6978967542285,
    "climb": 0.663800729282108,
    "pDOP": 1.73003749117723,
    "EventProcessedUtcTime": "2020-04-01T20:11:52.6218448Z",
    "PartitionId": 2,
    "EventEnqueuedUtcTime": "2020-04-01T20:02:58.7290000Z",
    "IoTHub": {
        "MessageId": null,
        "CorrelationId": null,
        "ConnectionDeviceId": "MyDotnetDevice",
        "ConnectionDeviceGenerationId": "637212789334938098",
        "EnqueuedTime": "2020-04-01T20:02:58.0000000",
        "StreamId": null
    }
},
{
    "class": "TPV",
    "device": "/dev/ttyS0",
    "mode": 3,
    "time": "2020-03-31T13:32:11.2990000Z",
    "lat": 60.4829581098086,
    "lon": 24.535252819087,
    "altMSL": 33.2181645064699,
    "eph": 9.52266298212235E-05,
    "epv": 1.34852612314211,
    "eps": 0.955506793202603,
    "track": 325.812084366014,
    "speed": 24.3961688389053,
    "climb": -0.263032229739722,
    "pDOP": 1.50483021443003,
    "EventProcessedUtcTime": "2020-04-01T20:11:52.6218448Z",
    "PartitionId": 2,
    "EventEnqueuedUtcTime": "2020-04-01T20:02:59.5720000Z",
    "IoTHub": {
        "MessageId": null,
        "CorrelationId": null,
        "ConnectionDeviceId": "MyDotnetDevice",
        "ConnectionDeviceGenerationId": "637212789334938098",
        "EnqueuedTime": "2020-04-01T20:02:59.0000000",
        "StreamId": null
    }
},
{
    "class": "TPV",
    "device": "/dev/ttyS0",
    "mode": 3,
    "time": "2020-03-31T13:32:11.2990000Z",
    "lat": 60.0638418379537,
    "lon": 24.3289749516775,
    "altMSL": 33.2170439303001,
    "eph": 4.79483389518914E-05,
    "epv": 1.14863902011357,
    "eps": 0.116295825744186,
    "track": 325.975466675579,
    "speed": 30.5668017363952,
    "climb": -0.251753988327344,
    "pDOP": 1.91101184995426,
    "EventProcessedUtcTime": "2020-04-01T20:11:52.6218448Z",
    "PartitionId": 2,
    "EventEnqueuedUtcTime": "2020-04-01T20:03:01.8230000Z",
    "IoTHub": {
        "MessageId": null,
        "CorrelationId": null,
        "ConnectionDeviceId": "MyDotnetDevice",
        "ConnectionDeviceGenerationId": "637212789334938098",
        "EnqueuedTime": "2020-04-01T20:03:01.0000000",
        "StreamId": null
    }
},
{
    "class": "TPV",
    "device": "/dev/ttyS0",
    "mode": 3,
    "time": "2020-03-31T13:32:11.2990000Z",
    "lat": 60.1733559138017,
    "lon": 24.4193700865933,
    "altMSL": 35.0824998682749,
    "eph": 8.14675421833375E-05,
    "epv": 1.33255698500786,
    "eps": 0.77403715940846,
    "track": 325.711186669632,
    "speed": 38.039412681963,
    "climb": -0.63517589989825,
    "pDOP": 1.99522594641672,
    "EventProcessedUtcTime": "2020-04-01T20:11:53.1374641Z",
    "PartitionId": 2,
    "EventEnqueuedUtcTime": "2020-04-01T20:03:03.0410000Z",
    "IoTHub": {
        "MessageId": null,
        "CorrelationId": null,
        "ConnectionDeviceId": "MyDotnetDevice",
        "ConnectionDeviceGenerationId": "637212789334938098",
        "EnqueuedTime": "2020-04-01T20:03:02.0000000",
        "StreamId": null
    }
},
{
    "class": "TPV",
    "device": "/dev/ttyS0",
    "mode": 3,
    "time": "2020-03-31T13:32:11.2990000Z",
    "lat": 60.8036272780987,
    "lon": 24.2100651004399,
    "altMSL": 35.248937008087,
    "eph": 8.71339286151966E-05,
    "epv": 1.29864390534286,
    "eps": 0.617093757547947,
    "track": 325.069306389927,
    "speed": 18.6997500242199,
    "climb": 0.425968907506191,
    "pDOP": 1.68744761249397,
    "EventProcessedUtcTime": "2020-04-01T20:11:53.1374641Z",
    "PartitionId": 2,
    "EventEnqueuedUtcTime": "2020-04-01T20:03:03.8690000Z",
    "IoTHub": {
        "MessageId": null,
        "CorrelationId": null,
        "ConnectionDeviceId": "MyDotnetDevice",
        "ConnectionDeviceGenerationId": "637212789334938098",
        "EnqueuedTime": "2020-04-01T20:03:03.0000000",
        "StreamId": null
    }
},
{
    "class": "TPV",
    "device": "/dev/ttyS0",
    "mode": 3,
    "time": "2020-03-31T13:32:11.2990000Z",
    "lat": 60.1469264045111,
    "lon": 24.432813336343,
    "altMSL": 33.2350025122217,
    "eph": 5.23734675964217E-05,
    "epv": 1.45598316772654,
    "eps": 0.732700833460642,
    "track": 325.217295472611,
    "speed": 36.9319811402503,
    "climb": -0.256829390421896,
    "pDOP": 1.94112561640382,
    "EventProcessedUtcTime": "2020-04-01T20:11:53.1374641Z",
    "PartitionId": 2,
    "EventEnqueuedUtcTime": "2020-04-01T20:03:04.9170000Z",
    "IoTHub": {
        "MessageId": null,
        "CorrelationId": null,
        "ConnectionDeviceId": "MyDotnetDevice",
        "ConnectionDeviceGenerationId": "637212789334938098",
        "EnqueuedTime": "2020-04-01T20:03:04.0000000",
        "StreamId": null
    }
},
{
    "class": "TPV",
    "device": "/dev/ttyS0",
    "mode": 3,
    "time": "2020-03-31T13:32:11.2990000Z",
    "lat": 60.5160315164905,
    "lon": 24.2495908081762,
    "altMSL": 34.4143296598524,
    "eph": 4.07141391377496E-06,
    "epv": 1.40121399257389,
    "eps": 0.684849661162519,
    "track": 325.291487773085,
    "speed": 46.8676987289766,
    "climb": -0.341011591414461,
    "pDOP": 1.42902541739355,
    "EventProcessedUtcTime": "2020-04-01T20:11:53.1374641Z",
    "PartitionId": 2,
    "EventEnqueuedUtcTime": "2020-04-01T20:03:06.1350000Z",
    "IoTHub": {
        "MessageId": null,
        "CorrelationId": null,
        "ConnectionDeviceId": "MyDotnetDevice",
        "ConnectionDeviceGenerationId": "637212789334938098",
        "EnqueuedTime": "2020-04-01T20:03:06.0000000",
        "StreamId": null
    }
},
{
    "class": "TPV",
    "device": "/dev/ttyS0",
    "mode": 3,
    "time": "2020-03-31T13:32:11.2990000Z",
    "lat": 60.4153561184254,
    "lon": 24.847783131454,
    "altMSL": 33.3780208287658,
    "eph": 3.6487586952973E-05,
    "epv": 1.47128363767233,
    "eps": 0.895028079811031,
    "track": 325.74865089578,
    "speed": 28.4374758458871,
    "climb": 0.965600304289535,
    "pDOP": 1.43146317705115,
    "EventProcessedUtcTime": "2020-04-01T20:11:53.1374641Z",
    "PartitionId": 2,
    "EventEnqueuedUtcTime": "2020-04-01T20:03:08.3870000Z",
    "IoTHub": {
        "MessageId": null,
        "CorrelationId": null,
        "ConnectionDeviceId": "MyDotnetDevice",
        "ConnectionDeviceGenerationId": "637212789334938098",
        "EnqueuedTime": "2020-04-01T20:03:08.0000000",
        "StreamId": null
    }
},
{
    "class": "TPV",
    "device": "/dev/ttyS0",
    "mode": 3,
    "time": "2020-03-31T13:32:11.2990000Z",
    "lat": 60.1225206833903,
    "lon": 24.057653245543,
    "altMSL": 34.2904316029933,
    "eph": 8.23586832184152E-05,
    "epv": 1.83274996226316,
    "eps": 0.56947797796199,
    "track": 324.263434108935,
    "speed": 11.9905190477104,
    "climb": -0.997191948349211,
    "pDOP": 1.9500884446083,
    "EventProcessedUtcTime": "2020-04-01T20:11:53.1374641Z",
    "PartitionId": 2,
    "EventEnqueuedUtcTime": "2020-04-01T20:03:09.2150000Z",
    "IoTHub": {
        "MessageId": null,
        "CorrelationId": null,
        "ConnectionDeviceId": "MyDotnetDevice",
        "ConnectionDeviceGenerationId": "637212789334938098",
        "EnqueuedTime": "2020-04-01T20:03:09.0000000",
        "StreamId": null
    }
},
{
    "class": "TPV",
    "device": "/dev/ttyS0",
    "mode": 3,
    "time": "2020-03-31T13:32:11.2990000Z",
    "lat": 60.5694305014654,
    "lon": 24.9513402799849,
    "altMSL": 35.7703692856107,
    "eph": 4.89388023731014E-05,
    "epv": 1.24368155293338,
    "eps": 0.133630873697638,
    "track": 325.160291535389,
    "speed": 18.9807797241867,
    "climb": 0.359192970376086,
    "pDOP": 1.64422261186141,
    "EventProcessedUtcTime": "2020-04-01T20:11:53.6530941Z",
    "PartitionId": 2,
    "EventEnqueuedUtcTime": "2020-04-01T20:03:11.2620000Z",
    "IoTHub": {
        "MessageId": null,
        "CorrelationId": null,
        "ConnectionDeviceId": "MyDotnetDevice",
        "ConnectionDeviceGenerationId": "637212789334938098",
        "EnqueuedTime": "2020-04-01T20:03:11.0000000",
        "StreamId": null
    }
},
{
    "class": "TPV",
    "device": "/dev/ttyS0",
    "mode": 3,
    "time": "2020-03-31T13:32:11.2990000Z",
    "lat": 60.5321259072666,
    "lon": 24.7436121826729,
    "altMSL": 34.6069422404314,
    "eph": 5.30599439763743E-05,
    "epv": 1.36007095843557,
    "eps": 0.621209124392462,
    "track": 324.936248547368,
    "speed": 30.1825711229735,
    "climb": 0.570471572955359,
    "pDOP": 1.61633477062748,
    "EventProcessedUtcTime": "2020-04-01T20:11:53.6530941Z",
    "PartitionId": 2,
    "EventEnqueuedUtcTime": "2020-04-01T20:03:12.7000000Z",
    "IoTHub": {
        "MessageId": null,
        "CorrelationId": null,
        "ConnectionDeviceId": "MyDotnetDevice",
        "ConnectionDeviceGenerationId": "637212789334938098",
        "EnqueuedTime": "2020-04-01T20:03:12.0000000",
        "StreamId": null
    }
},
{
    "class": "TPV",
    "device": "/dev/ttyS0",
    "mode": 3,
    "time": "2020-03-31T13:32:11.2990000Z",
    "lat": 60.5799052792508,
    "lon": 24.7968265613526,
    "altMSL": 35.9594197440704,
    "eph": 1.60928931162194E-05,
    "epv": 1.43463433367882,
    "eps": 0.718211917075427,
    "track": 324.151581851836,
    "speed": 24.497719817561,
    "climb": 0.681721274127123,
    "pDOP": 1.66762484175508,
    "EventProcessedUtcTime": "2020-04-01T20:11:53.6530941Z",
    "PartitionId": 2,
    "EventEnqueuedUtcTime": "2020-04-01T20:03:14.3710000Z",
    "IoTHub": {
        "MessageId": null,
        "CorrelationId": null,
        "ConnectionDeviceId": "MyDotnetDevice",
        "ConnectionDeviceGenerationId": "637212789334938098",
        "EnqueuedTime": "2020-04-01T20:03:14.0000000",
        "StreamId": null
    }
},
{
    "class": "TPV",
    "device": "/dev/ttyS0",
    "mode": 3,
    "time": "2020-03-31T13:32:11.2990000Z",
    "lat": 60.1293170652954,
    "lon": 24.9638350331056,
    "altMSL": 35.5965084543435,
    "eph": 1.21443241891192E-05,
    "epv": 1.39829775802712,
    "eps": 0.98541314107618,
    "track": 325.986346878105,
    "speed": 42.3770332729337,
    "climb": 0.215675696365384,
    "pDOP": 1.83300681870105,
    "EventProcessedUtcTime": "2020-04-01T20:11:53.6530941Z",
    "PartitionId": 2,
    "EventEnqueuedUtcTime": "2020-04-01T20:03:16.4190000Z",
    "IoTHub": {
        "MessageId": null,
        "CorrelationId": null,
        "ConnectionDeviceId": "MyDotnetDevice",
        "ConnectionDeviceGenerationId": "637212789334938098",
        "EnqueuedTime": "2020-04-01T20:03:16.0000000",
        "StreamId": null
    }
},
{
    "class": "TPV",
    "device": "/dev/ttyS0",
    "mode": 3,
    "time": "2020-03-31T13:32:11.2990000Z",
    "lat": 60.0959651060849,
    "lon": 24.2210827214742,
    "altMSL": 33.4944499290988,
    "eph": 6.60632634843063E-06,
    "epv": 1.25685046904574,
    "eps": 0.900760692032408,
    "track": 324.957233029863,
    "speed": 43.3385282188368,
    "climb": 0.467683721551524,
    "pDOP": 1.95743285070985,
    "EventProcessedUtcTime": "2020-04-01T20:11:53.6530941Z",
    "PartitionId": 2,
    "EventEnqueuedUtcTime": "2020-04-01T20:03:17.2480000Z",
    "IoTHub": {
        "MessageId": null,
        "CorrelationId": null,
        "ConnectionDeviceId": "MyDotnetDevice",
        "ConnectionDeviceGenerationId": "637212789334938098",
        "EnqueuedTime": "2020-04-01T20:03:17.0000000",
        "StreamId": null
    }
},
{
    "class": "TPV",
    "device": "/dev/ttyS0",
    "mode": 3,
    "time": "2020-03-31T13:32:11.2990000Z",
    "lat": 60.7626311731351,
    "lon": 24.9838768183179,
    "altMSL": 34.3271524665538,
    "eph": 6.47653453353631E-06,
    "epv": 1.83521310651452,
    "eps": 0.710044957562371,
    "track": 325.684321064355,
    "speed": 30.0100859091664,
    "climb": 0.873441142436788,
    "pDOP": 1.4874580239353,
    "EventProcessedUtcTime": "2020-04-01T20:11:53.6530941Z",
    "PartitionId": 2,
    "EventEnqueuedUtcTime": "2020-04-01T20:03:18.8730000Z",
    "IoTHub": {
        "MessageId": null,
        "CorrelationId": null,
        "ConnectionDeviceId": "MyDotnetDevice",
        "ConnectionDeviceGenerationId": "637212789334938098",
        "EnqueuedTime": "2020-04-01T20:03:18.0000000",
        "StreamId": null
    }
},
{
    "class": "TPV",
    "device": "/dev/ttyS0",
    "mode": 3,
    "time": "2020-03-31T13:32:11.2990000Z",
    "lat": 60.8645927728455,
    "lon": 24.9322694511769,
    "altMSL": 35.1325858375675,
